{"sudoc":{"query":[{"result":{"library":[{"rcr":"060832301","latitude":"43.779348","shortname":"MENTON-FNSP-Bibliothèque","longitude":"7.506761"},{"rcr":"103872101","latitude":"48.299345","shortname":"TROYES-BU Comtes de Champagne","longitude":"4.079367"},{"rcr":"130012101","latitude":"43.522118","shortname":"AIX-MRS-Aix-Lettres Sci. Humain.","longitude":"5.448604"},{"rcr":"130012102","latitude":"43.519271","shortname":"AIX-MRS-Aix-Droit Eco.","longitude":"5.4467564"},{"rcr":"130552109","latitude":"43.299875","shortname":"AIX-MRS-Marseille-Eco Gestion","longitude":"5.375345"},{"rcr":"141182304","latitude":{},"shortname":"CAEN-Antenne SciencesPo Rennes","longitude":{}},{"rcr":"173002101","latitude":"46.1523269","shortname":"LA ROCHELLE-BU","longitude":"-1.1531369"},{"rcr":"200962101","latitude":"42.3062067","shortname":"CORTE-BU","longitude":"9.1534075"},{"rcr":"212312306","latitude":"47.32658","shortname":"DIJON-FNSP-Bibliothèque","longitude":"5.030219"},{"rcr":"290192103","latitude":"48.40063989999999","shortname":"BREST-BU Droit-Eco.-Scie-Sports","longitude":"-4.4999641"},{"rcr":"290192301","latitude":"48.406290","shortname":"BREST-Infothèque ESC","longitude":"-4.521148"},{"rcr":"301892102","latitude":"43.84181","shortname":"NIMES-BU VAUBAN","longitude":"4.357101"},{"rcr":"315552102","latitude":"43.576592","shortname":"TOULOUSE2-BUC Mirail","longitude":"1.403615"},{"rcr":"315552103","latitude":"43.608002","shortname":"TOULOUSE1-BU Arsenal","longitude":"1.436695"},{"rcr":"352382101","latitude":"48.120934","shortname":"RENNES2-BU Centrale","longitude":"-1.7019"},{"rcr":"372612101","latitude":"47.394144","shortname":"TOURS-BU Droit Sci.Econ.Géogr.","longitude":"0.68484"},{"rcr":"381852210","latitude":"45.18912","shortname":"GRENOBLE-Centre Doc Fac Droit","longitude":"5.772020"},{"rcr":"422182101","latitude":"45.4269933","shortname":"ST ETIENNE-BU Droit-Let-Eco-Huma","longitude":"4.392433599999999"},{"rcr":"441092102","latitude":"47.245598","shortname":"NANTES-BU Lettres","longitude":"-1.54961"},{"rcr":"441092103","latitude":"47.244819","shortname":"NANTES-BU Droit","longitude":"-1.549085"},{"rcr":"441092106","latitude":{},"shortname":"NANTES-UCO BU","longitude":{}},{"rcr":"452342102","latitude":"47.84602486479582","shortname":"ORLEANS-BU Droit","longitude":"1.932254119643403"},{"rcr":"490072105","latitude":"47.4787557","shortname":"ANGERS-BU Droit-Economie-Santé","longitude":"-0.55081267"},{"rcr":"514542304","latitude":"49.246428","shortname":"REIMS-FNSP-Bibliothèque","longitude":"4.040554"},{"rcr":"543952102","latitude":"48.6925928","shortname":"NANCY-UL-BU DROIT SCIENCES ECO","longitude":"6.177229899999999"},{"rcr":"561212106","latitude":"47.74541319999999","shortname":"LORIENT-BU","longitude":"-3.3903526"},{"rcr":"591782101","latitude":"50.373459","shortname":"DOUAI-BU Droit","longitude":"3.069667"},{"rcr":"593502103","latitude":"50.6198929","shortname":"LILLE-BU Droit-Gestion","longitude":"3.0687209"},{"rcr":"593502213","latitude":"50.6224352","shortname":"LILLE-Bib. Sciences Po","longitude":"3.0776702"},{"rcr":"596062102","latitude":"50.36289469846285","shortname":"VALENCIENNES-BU Droit Economie","longitude":"3.5278400403892647"},{"rcr":"621602101","latitude":"50.725231","shortname":"BOULOGNE-BU Droit Lettres","longitude":"1.613334"},{"rcr":"690292101","latitude":"45.720735","shortname":"LYON2-BRON-BU","longitude":"4.916956"},{"rcr":"692562301","latitude":"45.7790055","shortname":"LYON-ENTPE","longitude":"4.9221344"},{"rcr":"692562302","latitude":"45.7799129","shortname":"LYON-Ecole Architecture","longitude":"4.923643599999991"},{"rcr":"692662301","latitude":"45.78285839999999","shortname":"LYON-INSA","longitude":"4.8773693"},{"rcr":"693822307","latitude":"45.746622","shortname":"LYON-UCLy BUHDL - Saint-Paul","longitude":"4.826411"},{"rcr":"693872102","latitude":"45.749089","shortname":"LYON3-Bibliothèques","longitude":"4.8606666"},{"rcr":"693872103","latitude":"45.7494471","shortname":"LYON2-BU Chevreul","longitude":"4.836583099999999"},{"rcr":"693872205","latitude":"45.7470899","shortname":"LYON - BU Sciences Po Lyon","longitude":"4.8357725"},{"rcr":"731372101","latitude":"45.5590","shortname":"CHAMBERY-BU Jacob","longitude":"5.9125"},{"rcr":"751052116","latitude":"48.8467139","shortname":"PARIS-Bib. Sainte Geneviève","longitude":"2.3463854"},{"rcr":"751052119","latitude":"48.84712020000001","shortname":"PARIS-CUJAS-BU Droit","longitude":"2.345166"},{"rcr":"751052144","latitude":"48.84746","shortname":"PARIS-Bib.Sainte-Barbe","longitude":"2.346752"},{"rcr":"751052230","latitude":"48.84981461035289","shortname":"PARIS-ASSAS-CERSA","longitude":"2.3458386659622192"},{"rcr":"751052314","latitude":"48.8493963","shortname":"PARIS-Collège de France-Patri.","longitude":"2.3447743"},{"rcr":"751062113","latitude":"48.855872976957805","shortname":"PARIS-UPCité BUSt-Germain-Pres","longitude":"2.3313605816840663"},{"rcr":"751072303","latitude":"48.8540763","shortname":"PARIS-Fondation Sci.Politiques","longitude":"2.3283652"},{"rcr":"751132102","latitude":"48.826887","shortname":"PARIS1-BU Pierre Mendès-France","longitude":"2.364995"},{"rcr":"751132105","latitude":"48.830299","shortname":"PARIS-UPCité BU Grands Moulins","longitude":"2.381411"},{"rcr":"751132108","latitude":"48.8274879","shortname":"PARIS-BULAC","longitude":"2.3761096"},{"rcr":"751142308","latitude":"48.8222836","shortname":"PARIS-ENS-Jourdan SHS","longitude":"2.3307252"},{"rcr":"751162101","latitude":"48.871159","shortname":"PARIS-DAUPHINE-BU","longitude":"2.2745166"},{"rcr":"763512303","latitude":"49.487403","shortname":"LE HAVRE-FNSP-Bibliothèque","longitude":"0.125534"},{"rcr":"774682303","latitude":"48.840557","shortname":"PARIS-EST-Ponts ParisTech-Bibl.","longitude":"2.587742"},{"rcr":"782972101","latitude":"48.78075579999999","shortname":"ST QUENTIN EN YVELINES-BU","longitude":"2.0446346"},{"rcr":"810042101","latitude":"43.9198447","shortname":"ALBI-BU","longitude":"2.1391243"},{"rcr":"851912101","latitude":"46.67711","shortname":"LA ROCHE S/YON-Centre Univ Dép","longitude":"-1.404416"},{"rcr":"851912102","latitude":"46.6726537","shortname":"LA ROCHE/YON-ICES-BU","longitude":"-1.4196838000000298"},{"rcr":"861942305","latitude":"46.584349","shortname":"POITIERS-FNSP-Bibliothèque","longitude":"0.343991"},{"rcr":"900102102","latitude":"47.64005179999999","shortname":"BELFORT-BU L. FEBVRE","longitude":"6.857305200000001"},{"rcr":"912282101","latitude":"48.6230765","shortname":"EVRY-BU","longitude":"2.4252985"},{"rcr":"912722101","latitude":{},"shortname":"PARIS-SACLAY-LUMEN","longitude":{}},{"rcr":"920462101","latitude":"48.824468","shortname":"MALAKOFF-UPCité BU J.-Chauvin","longitude":"2.302216"},{"rcr":"920502102","latitude":"48.9052539","shortname":"PARIS NANTERRE-BU","longitude":"2.2155396"},{"rcr":"920712201","latitude":"48.78194392046921","shortname":"PARIS-SACLAY-RECHERCHE (SCEAUX)","longitude":"2.2850610245368443"},{"rcr":"930012301","latitude":"48.9082","shortname":"AUBERVILLIERS-Campus Condorcet","longitude":"2.364710000000059"},{"rcr":"930662101","latitude":"48.94524209999999","shortname":"ST DENIS-BU PARIS8","longitude":"2.3639438"},{"rcr":"951272104","latitude":"49.037322","shortname":"CERGY PONTOISE-BU Les Cerclades","longitude":"2.080923"},{"rcr":"987352101","latitude":"-17.550961","shortname":"POLYNESIE-BU","longitude":"-149.597397"}]},"ppn":"144089661"},{"result":{"library":[{"rcr":"751052105","latitude":"48.8492618","shortname":"PARIS-BIS, Fonds général","longitude":"2.3433311"},{"rcr":"751052116","latitude":"48.8467139","shortname":"PARIS-Bib. Sainte Geneviève","longitude":"2.3463854"}]},"ppn":"154923206"}]}}
