<?xml version="1.0" encoding="UTF-8"?>
<sudoc service="multiwhere">
<query><ppn>144089661</ppn><result><library><rcr>060832301</rcr><shortname>MENTON-FNSP-Bibliothèque</shortname><latitude>43.779348</latitude><longitude>7.506761</longitude></library><library><rcr>103872101</rcr><shortname>TROYES-BU Comtes de Champagne</shortname><latitude>48.299345</latitude><longitude>4.079367</longitude></library><library><rcr>130012101</rcr><shortname>AIX-MRS-Aix-Lettres Sci. Humain.</shortname><latitude>43.522118</latitude><longitude>5.448604</longitude></library><library><rcr>130012102</rcr><shortname>AIX-MRS-Aix-Droit Eco.</shortname><latitude>43.519271</latitude><longitude>5.4467564</longitude></library><library><rcr>130552109</rcr><shortname>AIX-MRS-Marseille-Eco Gestion</shortname><latitude>43.299875</latitude><longitude>5.375345</longitude></library><library><rcr>141182304</rcr><shortname>CAEN-Antenne SciencesPo Rennes</shortname><latitude></latitude><longitude></longitude></library><library><rcr>173002101</rcr><shortname>LA ROCHELLE-BU</shortname><latitude>46.1523269</latitude><longitude>-1.1531369</longitude></library><library><rcr>200962101</rcr><shortname>CORTE-BU</shortname><latitude>42.3062067</latitude><longitude>9.1534075</longitude></library><library><rcr>212312306</rcr><shortname>DIJON-FNSP-Bibliothèque</shortname><latitude>47.32658</latitude><longitude>5.030219</longitude></library><library><rcr>290192103</rcr><shortname>BREST-BU Droit-Eco.-Scie-Sports</shortname><latitude>48.40063989999999</latitude><longitude>-4.4999641</longitude></library><library><rcr>290192301</rcr><shortname>BREST-Infothèque ESC</shortname><latitude>48.406290</latitude><longitude>-4.521148</longitude></library><library><rcr>301892102</rcr><shortname>NIMES-BU VAUBAN</shortname><latitude>43.84181</latitude><longitude>4.357101</longitude></library><library><rcr>315552102</rcr><shortname>TOULOUSE2-BUC Mirail</shortname><latitude>43.576592</latitude><longitude>1.403615</longitude></library><library><rcr>315552103</rcr><shortname>TOULOUSE1-BU Arsenal</shortname><latitude>43.608002</latitude><longitude>1.436695</longitude></library><library><rcr>352382101</rcr><shortname>RENNES2-BU Centrale</shortname><latitude>48.120934</latitude><longitude>-1.7019</longitude></library><library><rcr>372612101</rcr><shortname>TOURS-BU Droit Sci.Econ.Géogr.</shortname><latitude>47.394144</latitude><longitude>0.68484</longitude></library><library><rcr>381852210</rcr><shortname>GRENOBLE-Centre Doc Fac Droit</shortname><latitude>45.18912</latitude><longitude>5.772020</longitude></library><library><rcr>422182101</rcr><shortname>ST ETIENNE-BU Droit-Let-Eco-Huma</shortname><latitude>45.4269933</latitude><longitude>4.392433599999999</longitude></library><library><rcr>441092102</rcr><shortname>NANTES-BU Lettres</shortname><latitude>47.245598</latitude><longitude>-1.54961</longitude></library><library><rcr>441092103</rcr><shortname>NANTES-BU Droit</shortname><latitude>47.244819</latitude><longitude>-1.549085</longitude></library><library><rcr>441092106</rcr><shortname>NANTES-UCO BU</shortname><latitude></latitude><longitude></longitude></library><library><rcr>452342102</rcr><shortname>ORLEANS-BU Droit</shortname><latitude>47.84602486479582</latitude><longitude>1.932254119643403</longitude></library><library><rcr>490072105</rcr><shortname>ANGERS-BU Droit-Economie-Santé</shortname><latitude>47.4787557</latitude><longitude>-0.55081267</longitude></library><library><rcr>514542304</rcr><shortname>REIMS-FNSP-Bibliothèque</shortname><latitude>49.246428</latitude><longitude>4.040554</longitude></library><library><rcr>543952102</rcr><shortname>NANCY-UL-BU DROIT SCIENCES ECO</shortname><latitude>48.6925928</latitude><longitude>6.177229899999999</longitude></library><library><rcr>561212106</rcr><shortname>LORIENT-BU</shortname><latitude>47.74541319999999</latitude><longitude>-3.3903526</longitude></library><library><rcr>591782101</rcr><shortname>DOUAI-BU Droit</shortname><latitude>50.373459</latitude><longitude>3.069667</longitude></library><library><rcr>593502103</rcr><shortname>LILLE-BU Droit-Gestion</shortname><latitude>50.6198929</latitude><longitude>3.0687209</longitude></library><library><rcr>593502213</rcr><shortname>LILLE-Bib. Sciences Po</shortname><latitude>50.6224352</latitude><longitude>3.0776702</longitude></library><library><rcr>596062102</rcr><shortname>VALENCIENNES-BU Droit Economie</shortname><latitude>50.36289469846285</latitude><longitude>3.5278400403892647</longitude></library><library><rcr>621602101</rcr><shortname>BOULOGNE-BU Droit Lettres</shortname><latitude>50.725231</latitude><longitude>1.613334</longitude></library><library><rcr>690292101</rcr><shortname>LYON2-BRON-BU</shortname><latitude>45.720735</latitude><longitude>4.916956</longitude></library><library><rcr>692562301</rcr><shortname>LYON-ENTPE</shortname><latitude>45.7790055</latitude><longitude>4.9221344</longitude></library><library><rcr>692562302</rcr><shortname>LYON-Ecole Architecture</shortname><latitude>45.7799129</latitude><longitude>4.923643599999991</longitude></library><library><rcr>692662301</rcr><shortname>LYON-INSA</shortname><latitude>45.78285839999999</latitude><longitude>4.8773693</longitude></library><library><rcr>693822307</rcr><shortname>LYON-UCLy BUHDL - Saint-Paul</shortname><latitude>45.746622</latitude><longitude>4.826411</longitude></library><library><rcr>693872102</rcr><shortname>LYON3-Bibliothèques</shortname><latitude>45.749089</latitude><longitude>4.8606666</longitude></library><library><rcr>693872103</rcr><shortname>LYON2-BU Chevreul</shortname><latitude>45.7494471</latitude><longitude>4.836583099999999</longitude></library><library><rcr>693872205</rcr><shortname>LYON - BU Sciences Po Lyon</shortname><latitude>45.7470899</latitude><longitude>4.8357725</longitude></library><library><rcr>731372101</rcr><shortname>CHAMBERY-BU Jacob</shortname><latitude>45.5590</latitude><longitude>5.9125</longitude></library><library><rcr>751052116</rcr><shortname>PARIS-Bib. Sainte Geneviève</shortname><latitude>48.8467139</latitude><longitude>2.3463854</longitude></library><library><rcr>751052119</rcr><shortname>PARIS-CUJAS-BU Droit</shortname><latitude>48.84712020000001</latitude><longitude>2.345166</longitude></library><library><rcr>751052144</rcr><shortname>PARIS-Bib.Sainte-Barbe</shortname><latitude>48.84746</latitude><longitude>2.346752</longitude></library><library><rcr>751052230</rcr><shortname>PARIS-ASSAS-CERSA</shortname><latitude>48.84981461035289</latitude><longitude>2.3458386659622192</longitude></library><library><rcr>751052314</rcr><shortname>PARIS-Collège de France-Patri.</shortname><latitude>48.8493963</latitude><longitude>2.3447743</longitude></library><library><rcr>751062113</rcr><shortname>PARIS-UPCité BUSt-Germain-Pres</shortname><latitude>48.855872976957805</latitude><longitude>2.3313605816840663</longitude></library><library><rcr>751072303</rcr><shortname>PARIS-Fondation Sci.Politiques</shortname><latitude>48.8540763</latitude><longitude>2.3283652</longitude></library><library><rcr>751132102</rcr><shortname>PARIS1-BU Pierre Mendès-France</shortname><latitude>48.826887</latitude><longitude>2.364995</longitude></library><library><rcr>751132105</rcr><shortname>PARIS-UPCité BU Grands Moulins</shortname><latitude>48.830299</latitude><longitude>2.381411</longitude></library><library><rcr>751132108</rcr><shortname>PARIS-BULAC</shortname><latitude>48.8274879</latitude><longitude>2.3761096</longitude></library><library><rcr>751142308</rcr><shortname>PARIS-ENS-Jourdan SHS</shortname><latitude>48.8222836</latitude><longitude>2.3307252</longitude></library><library><rcr>751162101</rcr><shortname>PARIS-DAUPHINE-BU</shortname><latitude>48.871159</latitude><longitude>2.2745166</longitude></library><library><rcr>763512303</rcr><shortname>LE HAVRE-FNSP-Bibliothèque</shortname><latitude>49.487403</latitude><longitude>0.125534</longitude></library><library><rcr>774682303</rcr><shortname>PARIS-EST-Ponts ParisTech-Bibl.</shortname><latitude>48.840557</latitude><longitude>2.587742</longitude></library><library><rcr>782972101</rcr><shortname>ST QUENTIN EN YVELINES-BU</shortname><latitude>48.78075579999999</latitude><longitude>2.0446346</longitude></library><library><rcr>810042101</rcr><shortname>ALBI-BU</shortname><latitude>43.9198447</latitude><longitude>2.1391243</longitude></library><library><rcr>851912101</rcr><shortname>LA ROCHE S/YON-Centre Univ Dép</shortname><latitude>46.67711</latitude><longitude>-1.404416</longitude></library><library><rcr>851912102</rcr><shortname>LA ROCHE/YON-ICES-BU</shortname><latitude>46.6726537</latitude><longitude>-1.4196838000000298</longitude></library><library><rcr>861942305</rcr><shortname>POITIERS-FNSP-Bibliothèque</shortname><latitude>46.584349</latitude><longitude>0.343991</longitude></library><library><rcr>900102102</rcr><shortname>BELFORT-BU L. FEBVRE</shortname><latitude>47.64005179999999</latitude><longitude>6.857305200000001</longitude></library><library><rcr>912282101</rcr><shortname>EVRY-BU</shortname><latitude>48.6230765</latitude><longitude>2.4252985</longitude></library><library><rcr>912722101</rcr><shortname>PARIS-SACLAY-LUMEN</shortname><latitude></latitude><longitude></longitude></library><library><rcr>920462101</rcr><shortname>MALAKOFF-UPCité BU J.-Chauvin</shortname><latitude>48.824468</latitude><longitude>2.302216</longitude></library><library><rcr>920502102</rcr><shortname>PARIS NANTERRE-BU</shortname><latitude>48.9052539</latitude><longitude>2.2155396</longitude></library><library><rcr>920712201</rcr><shortname>PARIS-SACLAY-RECHERCHE (SCEAUX)</shortname><latitude>48.78194392046921</latitude><longitude>2.2850610245368443</longitude></library><library><rcr>930012301</rcr><shortname>AUBERVILLIERS-Campus Condorcet</shortname><latitude>48.9082</latitude><longitude>2.364710000000059</longitude></library><library><rcr>930662101</rcr><shortname>ST DENIS-BU PARIS8</shortname><latitude>48.94524209999999</latitude><longitude>2.3639438</longitude></library><library><rcr>951272104</rcr><shortname>CERGY PONTOISE-BU Les Cerclades</shortname><latitude>49.037322</latitude><longitude>2.080923</longitude></library><library><rcr>987352101</rcr><shortname>POLYNESIE-BU</shortname><latitude>-17.550961</latitude><longitude>-149.597397</longitude></library></result></query><query><ppn>154923206</ppn><result><library><rcr>751052105</rcr><shortname>PARIS-BIS, Fonds général</shortname><latitude>48.8492618</latitude><longitude>2.3433311</longitude></library><library><rcr>751052116</rcr><shortname>PARIS-Bib. Sainte Geneviève</shortname><latitude>48.8467139</latitude><longitude>2.3463854</longitude></library></result></query>
</sudoc>